Latitude,Longitude,City,State,Country
28.7040592,77.1024902,Delhi,Delhi,India
13.0826802,80.2707184,Chennai,Tamil Nadu,India
22.572646,88.363895,Kolkata,West Bengal,India
19.0759837,72.8776559,Mumbai,Maharashtra,India
26.8466937,80.946166,Lucknow,Uttar Pradesh,India
25.9462838,83.5610119,Mau,Uttar Pradesh,India